{
"type": "FeatureCollection",
"name": "State_office_data",
"crs": { "type": "name", "properties": { "name": "urn:ogc:def:crs:OGC:1.3:CRS84" } },
"features": [
{ "type": "Feature", "properties": { "OBJECTID": 4, "Name": "001(ABDUL QAYOM", "Descript": null, "Type": "WPT", "Comment": null, "Symbol": "Flag, Blue", "DateTimeS": "2016-11-29T08:26:28Z", "Elevation": 393.660858, "DateTime": "2016-11-29", "Retirment_": "30/12/2020", "Attachemen": "001(Abdul Qayyum).jpg", "Video_link": null }, "geometry": { "type": "Point", "coordinates": [ 71.441702, 33.985027, 393.660900000002584 ] } },
{ "type": "Feature", "properties": { "OBJECTID": 5, "Name": "002(DR MUSHTAQ AHMAD", "Descript": null, "Type": "WPT", "Comment": null, "Symbol": "Flag, Blue", "DateTimeS": "2016-11-29T08:29:12Z", "Elevation": 395.589447, "DateTime": "2016-11-29", "Retirment_": "25/12/2021", "Attachemen": "002(Dr Mushtaq Ahmad).jpg", "Video_link": null }, "geometry": { "type": "Point", "coordinates": [ 71.44169, 33.984852, 395.589399999997113 ] } },
{ "type": "Feature", "properties": { "OBJECTID": 6, "Name": "003(MIS SHEHNAZ)", "Descript": null, "Type": "WPT", "Comment": null, "Symbol": "Flag, Blue", "DateTimeS": "2016-11-29T08:33:22Z", "Elevation": 394.625702, "DateTime": "2016-11-29", "Retirment_": "20/12/2022", "Attachemen": "003(Miss Shehnaz Akhter).jpg", "Video_link": null }, "geometry": { "type": "Point", "coordinates": [ 71.441683, 33.98469, 394.625700000004144 ] } },
{ "type": "Feature", "properties": { "OBJECTID": 7, "Name": "004(REETHA)", "Descript": null, "Type": "WPT", "Comment": null, "Symbol": "Flag, Blue", "DateTimeS": "2016-11-29T08:37:57Z", "Elevation": 396.146332, "DateTime": "2016-11-29", "Retirment_": "15/10/2023", "Attachemen": "004(Miss Reetha Rabail).jpg", "Video_link": null }, "geometry": { "type": "Point", "coordinates": [ 71.441685, 33.984493, 396.146299999993062 ] } },
{ "type": "Feature", "properties": { "OBJECTID": 8, "Name": "005(NAIK NAWAZ)", "Descript": null, "Type": "WPT", "Comment": null, "Symbol": "Flag, Blue", "DateTimeS": "2016-11-29T08:41:09Z", "Elevation": 395.990601, "DateTime": "2016-11-29", "Retirment_": "10/09/2024", "Attachemen": "005(Nek Nawaz Khan).jpg", "Video_link": null }, "geometry": { "type": "Point", "coordinates": [ 71.441707, 33.984371, 395.990600000004633 ] } },
{ "type": "Feature", "properties": { "OBJECTID": 9, "Name": "006(SAYED ALAMGIR)", "Descript": null, "Type": "WPT", "Comment": null, "Symbol": "Flag, Blue", "DateTimeS": "2016-11-29T08:44:07Z", "Elevation": 395.831177, "DateTime": "2016-11-29", "Retirment_": "30/08/2020", "Attachemen": "006(Syed Alamgir Shah).jpg", "Video_link": null }, "geometry": { "type": "Point", "coordinates": [ 71.441625, 33.984272, 395.831200000000536 ] } },
{ "type": "Feature", "properties": { "OBJECTID": 11, "Name": "007(MUHAMMAD JAVED", "Descript": null, "Type": "WPT", "Comment": null, "Symbol": "Flag, Blue", "DateTimeS": "2016-11-29T08:49:27Z", "Elevation": 396.852997, "DateTime": "2016-11-29", "Retirment_": "30/09/2020", "Attachemen": "007(Muhammad Javed).jpg", "Video_link": null }, "geometry": { "type": "Point", "coordinates": [ 71.441655, 33.9841, 396.853000000002794 ] } },
{ "type": "Feature", "properties": { "OBJECTID": 12, "Name": "008(NOSHEEN GUL", "Descript": null, "Type": "WPT", "Comment": null, "Symbol": "Flag, Blue", "DateTimeS": "2016-11-29T08:52:08Z", "Elevation": 395.82724, "DateTime": "2016-11-29", "Retirment_": "30/10/2020", "Attachemen": "008(Nausheen Gul).jpg", "Video_link": null }, "geometry": { "type": "Point", "coordinates": [ 71.441659, 33.983964, 395.827199999999721 ] } },
{ "type": "Feature", "properties": { "OBJECTID": 13, "Name": "009(NABELA SHER MUH)", "Descript": null, "Type": "WPT", "Comment": null, "Symbol": "Flag, Blue", "DateTimeS": "2016-11-29T08:55:36Z", "Elevation": 396.636932, "DateTime": "2016-11-29", "Retirment_": "20/11/2020", "Attachemen": "009(Dr Nabila Sher  Muhammad).jpg", "Video_link": null }, "geometry": { "type": "Point", "coordinates": [ 71.441628, 33.983797, 396.636899999997695 ] } },
{ "type": "Feature", "properties": { "OBJECTID": 14, "Name": "010(AMJID KHAN)", "Descript": null, "Type": "WPT", "Comment": null, "Symbol": "Flag, Blue", "DateTimeS": "2016-11-29T08:59:53Z", "Elevation": 396.798035, "DateTime": "2016-11-29", "Retirment_": "20/12/2020", "Attachemen": "010(Amjad Khan).jpg", "Video_link": null }, "geometry": { "type": "Point", "coordinates": [ 71.441647, 33.983649, 396.797999999995227 ] } },
{ "type": "Feature", "properties": { "OBJECTID": 15, "Name": "011(MALIK MUH TARIQ", "Descript": null, "Type": "WPT", "Comment": null, "Symbol": "Flag, Blue", "DateTimeS": "2016-11-29T09:01:58Z", "Elevation": 397.320068, "DateTime": "2016-11-29", "Retirment_": "30/12/2030", "Attachemen": "011(Malik Muhammad Tariq).jpg", "Video_link": null }, "geometry": { "type": "Point", "coordinates": [ 71.44161, 33.98354, 397.320099999997183 ] } },
{ "type": "Feature", "properties": { "OBJECTID": 16, "Name": "012(MUKHTIAR KHAN)", "Descript": null, "Type": "WPT", "Comment": null, "Symbol": "Flag, Blue", "DateTimeS": "2016-11-29T09:05:24Z", "Elevation": 397.139648, "DateTime": "2016-11-29", "Retirment_": "30/12/2032", "Attachemen": "012(Mukhtair Khan).jpg", "Video_link": null }, "geometry": { "type": "Point", "coordinates": [ 71.44162, 33.983367, 397.139599999994971 ] } },
{ "type": "Feature", "properties": { "OBJECTID": 17, "Name": "013(DR HIKMAT JAN)", "Descript": null, "Type": "WPT", "Comment": null, "Symbol": "Flag, Blue", "DateTimeS": "2016-11-29T09:07:50Z", "Elevation": 398.579193, "DateTime": "2016-11-29", "Retirment_": "28/12/2034", "Attachemen": "013(Dr Hikmat Ullah Jan).jpg", "Video_link": null }, "geometry": { "type": "Point", "coordinates": [ 71.441601, 33.983233, 398.579199999992852 ] } },
{ "type": "Feature", "properties": { "OBJECTID": 18, "Name": "014(DR AHMAD ZEB)", "Descript": null, "Type": "WPT", "Comment": null, "Symbol": "Flag, Blue", "DateTimeS": "2016-11-29T09:12:28Z", "Elevation": 398.942474, "DateTime": "2016-11-29", "Retirment_": "30/12/2035", "Attachemen": "014(Dr Ahmad Zeb).jpg", "Video_link": null }, "geometry": { "type": "Point", "coordinates": [ 71.441578, 33.983065, 398.942500000004657 ] } },
{ "type": "Feature", "properties": { "OBJECTID": 19, "Name": "015(NIGAR ALI KHAN)", "Descript": null, "Type": "WPT", "Comment": null, "Symbol": "Flag, Blue", "DateTimeS": "2016-11-29T09:16:18Z", "Elevation": 397.705811, "DateTime": "2016-11-29", "Retirment_": "30/12/2040", "Attachemen": "015(Nigar Ali Khan).jpg", "Video_link": null }, "geometry": { "type": "Point", "coordinates": [ 71.441574, 33.982927, 397.705799999996088 ] } },
{ "type": "Feature", "properties": { "OBJECTID": 20, "Name": "016(DR SALMA JAN)", "Descript": null, "Type": "WPT", "Comment": null, "Symbol": "Flag, Blue", "DateTimeS": "2016-11-29T09:18:52Z", "Elevation": 397.17627, "DateTime": "2016-11-29", "Retirment_": "30/12/2042", "Attachemen": "016(Dr Salma Jan).jpg", "Video_link": null }, "geometry": { "type": "Point", "coordinates": [ 71.441587, 33.982785, 397.176300000006449 ] } },
{ "type": "Feature", "properties": { "OBJECTID": 21, "Name": "017(MUHAMMAD AYAZ)", "Descript": null, "Type": "WPT", "Comment": null, "Symbol": "Flag, Blue", "DateTimeS": "2016-11-29T09:22:30Z", "Elevation": 397.024139, "DateTime": "2016-11-29", "Retirment_": "30/12/2043", "Attachemen": "017(Muhammad Ayaz).jpg", "Video_link": null }, "geometry": { "type": "Point", "coordinates": [ 71.441526, 33.982695, 397.024099999995087 ] } },
{ "type": "Feature", "properties": { "OBJECTID": 22, "Name": "018(MUHAMMAD KABIR)", "Descript": null, "Type": "WPT", "Comment": null, "Symbol": "Flag, Blue", "DateTimeS": "2016-11-29T09:25:41Z", "Elevation": 398.228516, "DateTime": "2016-11-29", "Retirment_": "30/12/2044", "Attachemen": "018(Muhammad Kabir Afridi).jpg", "Video_link": null }, "geometry": { "type": "Point", "coordinates": [ 71.441563, 33.982522, 398.228499999997439 ] } },
{ "type": "Feature", "properties": { "OBJECTID": 23, "Name": "019(GHAZANFAR ALI)", "Descript": null, "Type": "WPT", "Comment": null, "Symbol": "Flag, Blue", "DateTimeS": "2016-11-29T09:30:28Z", "Elevation": 398.643707, "DateTime": "2016-11-29", "Retirment_": "30/12/2045", "Attachemen": "019(Mr Ghazanfar).jpg", "Video_link": null }, "geometry": { "type": "Point", "coordinates": [ 71.441556, 33.982356, 398.643700000000536 ] } },
{ "type": "Feature", "properties": { "OBJECTID": 24, "Name": "020(MUMTAZ ALI)", "Descript": null, "Type": "WPT", "Comment": null, "Symbol": "Flag, Blue", "DateTimeS": "2016-11-29T09:34:29Z", "Elevation": 397.751801, "DateTime": "2016-11-29", "Retirment_": "30/12/2047", "Attachemen": "020(Prof Mumtaz Ali Marwat).jpg", "Video_link": null }, "geometry": { "type": "Point", "coordinates": [ 71.44151, 33.982233, 397.751799999998184 ] } },
{ "type": "Feature", "properties": { "OBJECTID": 25, "Name": "021(MUALIM JAN)", "Descript": null, "Type": "WPT", "Comment": null, "Symbol": "Flag, Blue", "DateTimeS": "2016-11-29T09:38:23Z", "Elevation": 397.812805, "DateTime": "2016-11-29", "Retirment_": "30/12/2048", "Attachemen": "021(Mr Mualim Jan).jpg", "Video_link": null }, "geometry": { "type": "Point", "coordinates": [ 71.441477, 33.982046, 397.812799999999697 ] } }
]
}
